University Name,LAT,LONG
Columbia University,40.8075,-73.9626
New York University (NYU),40.7291,-73.9965
The City College of New York (CUNY),40.8201,-73.9496
Fordham University,40.8622,-73.8856
Pratt Institute,40.6911,-73.9633
Pace University,40.7113,-74.0057
St. John's University,40.7214,-73.7949
The Juilliard School,40.7739,-73.984
Fashion Institute of Technology,40.7472,-73.995
Cooper Union,40.728,-73.9903
